var data = { "count": 10785236,
 "photos": [{"category": "A", "venue_title": "National Gallery of Modern Art", "phone": "080 2234 2338", "website" : "http://ngmaindia.gov.in/", "email": "ngma.delhi@gmail.com", "longitude": 77.6369323, "latitude": 12.9701272, "genre": "Gallery", "address": "49, GF, Manikyavelu Mansion, Palace Rd, Vasanth Nagar, Bengaluru, Karnataka 560052", "fb": "https://www.facebook.com/ngmadelhi/", "twitter": "https://twitter.com/ngma_delhi", "youtube": "https://www.youtube.com/channel/UCGpjRKx4wqGSUin3Y-Lrb5w "}
,
{"category": "B", "venue_title": "Ranga Shankara", "phone": "91-80-26592777, +91-80-26493982", "website" : "http://www.rangashankara.org", "email": "programming@rangashankara.in", "longitude": 77.5849247, "latitude": 12.9115954, "genre": "Performing arts theater", "address": "36/2, 8th Cross Road, 2nd Phase, JP Nagar, Bengaluru", "fb": "https://www.facebook.com/rangashankara/ ", "twitter": "#", "youtube": "#"}
,
{"category": "A", "venue_title": "Venkatappa Art Gallery", "phone": "080 2286 4483", "website" : "https://vagforum.in/", "email": "#", "longitude": 77.5914323, "latitude": 12.9718516, "genre": "Gallery", "address": "Kasturba Rd, Ambedkar Veedhi, Sampangi Rama Nagar, Bengaluru, Karnataka 560001", "fb": "https://www.facebook.com/pages/Venkatappa-Art-Gallery/162272507221939", "twitter": "https://twitter.com/blrheritage", "youtube": "#"}
,
{"category": "B", "venue_title": "The Humming Tree", "phone": "080 2224 1325", "website" : "#", "email": "#", "longitude": 77.6368543, "latitude": 12.9702653, "genre": "Performing Venue", "address": "No.949, 12th Main Rd, Sodepur, Doopanahalli, Indiranagar, Bengaluru, Karnataka 560008", "fb": "https://www.facebook.com/thehummingtree/", "twitter": "https://twitter.com/the_hummingtree", "youtube": "https://www.youtube.com/channel/UCRZ-B8xfp8yUCSzfZbXzUyQ"}
,
{"category": "B", "venue_title": "Alliance Francaise De Bangalore", "phone": "080 4080 8181", "website" : "https://bangalore.afindia.org/", "email": "afbangalore@afindia.org / afbangalore2@afindia.org", "longitude": 77.594877, "latitude": 12.9909594, "genre": "French language school/Events", "address": "Thimmaiah Road, Opposite U.N. I Building, Vasant Nagar, Bengaluru, Karnataka 560052", "fb": "https://www.facebook.com/AllianceFrancaiseBangalore/", "twitter": "https://twitter.com/afbglr", "youtube": "#"}
,
{"category": "B", "venue_title": "Harkat Studios, Mumbai", "phone": "077180 30009", "website" : "https://harkat.in/", "email": "afbangalore@afindia.org / afbangalore2@afindia.org", "longitude": 72.8110123, "latitude": 19.1343271, "genre": "Performance Spaces", "address": "Bungalow No. 75, JP Road, Aram Nagar Part 2, Versova, Andheri West, Mumbai, Maharashtra 400061", "fb": "https://www.facebook.com/AllianceFrancaiseBangalore/", "twitter": "https://twitter.com/afbglr", "youtube": "#"}
,
{"category": "B", "venue_title": "Barefoot! Space, New Delhi", "phone": "077180 30009", "website" : "https://harkat.in/", "email": "afbangalore@afindia.org / afbangalore2@afindia.org", "longitude": 77.2145917, "latitude": 28.5491063, "genre": "Performance Spaces", "address": "86/1 Shahpur Jat, Asian Games Village Rd, Shahpur Jat, Siri Fort, New Delhi, Delhi 110049", "fb": "https://www.facebook.com/AllianceFrancaiseBangalore/", "twitter": "https://twitter.com/afbglr", "youtube": "#"}
,
{"category": "A", "venue_title": "HAL Heritage Centre and Aerospace Museum", "phone": "080 2231 8341", "website" : "http://hal-india.co.in/Index.aspx", "email": "#", "longitude": 77.6809878, "latitude": 12.9551961, "genre": "Museum", "address": "Near HAL Police Station, HAL Old Airport Rd, Marathahalli, Bengaluru, Karnataka 560037", "fb": "https://www.facebook.com/pages/Venkatappa-Art-Gallery/162272507221939", "twitter": "https://twitter.com/blrheritage", "youtube": "#"}
,
{"category": "A", "venue_title": "National Museum, New Delhi", "phone": "011 2379 2775", "website" : "nationalmuseumindia.gov.in", "email": "#", "longitude": 77.2192933, "latitude": 28.6118213, "genre": "Museum", "address": "Near HAL Police Station, HAL Old Airport Rd, Marathahalli, Bengaluru, Karnataka 560037", "fb": "https://www.facebook.com/pages/Venkatappa-Art-Gallery/162272507221939", "twitter": "https://twitter.com/blrheritage", "youtube": "#"}
,
{"category": "A", "venue_title": "National Rail Museum, New Delhi", "phone": "011 2688 1826", "website" : "nrmindia.com", "email": "#", "longitude": 77.179753, "latitude": 28.5857968, "genre": "Museum", "address": "Chanakyapuri, New Delhi, Delhi 110021", "fb": "https://www.facebook.com/pages/Venkatappa-Art-Gallery/162272507221939", "twitter": "https://twitter.com/blrheritage", "youtube": "#"}
,
{"photo_id": 57819, "category": "C", "venue_title": "Venue8", "photo_url": "http://www.panoramio.com/photo/57819", "photo_file_url": "http://mw2.google.com/mw-panoramio/photos/medium/57819.jpg", "longitude": 13.189259, "latitude": 47.483221, "width": 500, "height": 333, "upload_date": "05 October 2006", "owner_id": 8060, "owner_name": "Norbert MAIER", "owner_url": "http://www.panoramio.com/user/8060"}
,
{"photo_id": 1282387, "category": "D", "venue_title": "Venue9", "photo_url": "http://www.panoramio.com/photo/1282387", "photo_file_url": "http://mw2.google.com/mw-panoramio/photos/medium/1282387.jpg", "longitude": -61.013432, "latitude": 14.493688, "width": 500, "height": 400, "upload_date": "12 March 2007", "owner_id": 49870, "owner_name": "Jean-Michel Raggioli", "owner_url": "http://www.panoramio.com/user/49870"}
,
{"photo_id": 945976, "category": "C", "venue_title": "Venue10", "photo_url": "http://www.panoramio.com/photo/945976", "photo_file_url": "http://mw2.google.com/mw-panoramio/photos/medium/945976.jpg", "longitude": 0.490866, "latitude": 40.903783, "width": 335, "height": 500, "upload_date": "21 February 2007", "owner_id": 3022, "owner_name": "Arcadi", "owner_url": "http://www.panoramio.com/user/3022"}
,
{"photo_id": 298967, "category": "D", "venue_title": "Antelope Canyon, Ray of Light", "photo_url": "http://www.panoramio.com/photo/298967", "photo_file_url": "http://mw2.google.com/mw-panoramio/photos/medium/298967.jpg", "longitude": -111.407890, "latitude": 36.894037, "width": 500, "height": 375, "upload_date": "04 January 2007", "owner_id": 64388, "owner_name": "Artusi", "owner_url": "http://www.panoramio.com/user/64388"}
,
{"photo_id": 6463, "category": "D", "venue_title": "Guggenheim and spider", "photo_url": "http://www.panoramio.com/photo/6463", "photo_file_url": "http://mw2.google.com/mw-panoramio/photos/medium/6463.jpg", "longitude": -2.933736, "latitude": 43.269159, "width": 500, "height": 375, "upload_date": "09 January 2006", "owner_id": 414, "owner_name": "Sonia Villegas", "owner_url": "http://www.panoramio.com/user/414"}
,
{"photo_id": 9439, "category": "C", "venue_title": "Bora Bora", "photo_url": "http://www.panoramio.com/photo/9439", "photo_file_url": "http://mw2.google.com/mw-panoramio/photos/medium/9439.jpg", "longitude": -151.750000, "latitude": -16.500000, "width": 500, "height": 375, "upload_date": "02 February 2006", "owner_id": 1600, "owner_name": "heavenearth", "owner_url": "http://www.panoramio.com/user/1600"}
,
{"photo_id": 673131, "category": "D", "venue_title": "Nivane in Ørsta", "photo_url": "http://www.panoramio.com/photo/673131", "photo_file_url": "http://mw2.google.com/mw-panoramio/photos/medium/673131.jpg", "longitude": 6.108742, "latitude": 62.226676, "width": 500, "height": 334, "upload_date": "03 February 2007", "owner_id": 56091, "owner_name": "Kjetil Vaage Øie", "owner_url": "http://www.panoramio.com/user/56091"}
,
{"photo_id": 346269, "category": "D", "venue_title": "italy-toscany", "photo_url": "http://www.panoramio.com/photo/346269", "photo_file_url": "http://mw2.google.com/mw-panoramio/photos/medium/346269.jpg", "longitude": 11.616282, "latitude": 43.064389, "width": 500, "height": 334, "upload_date": "08 January 2007", "owner_id": 69671, "owner_name": "illusandpics.com", "owner_url": "http://www.panoramio.com/user/69671"}
,
{"photo_id": 1870141, "category": "C", "venue_title": "Les Mines", "photo_url": "http://www.panoramio.com/photo/1870141", "photo_file_url": "http://mw2.google.com/mw-panoramio/photos/medium/1870141.jpg", "longitude": 1.314712, "latitude": 45.922199, "width": 500, "height": 379, "upload_date": "21 April 2007", "owner_id": 372189, "owner_name": "Phil©", "owner_url": "http://www.panoramio.com/user/372189"}
,
{"photo_id": 516809, "category": "D", "venue_title": "Az őrszem", "photo_url": "http://www.panoramio.com/photo/516809", "photo_file_url": "http://mw2.google.com/mw-panoramio/photos/medium/516809.jpg", "longitude": 18.239279, "latitude": 47.535341, "width": 500, "height": 286, "upload_date": "21 January 2007", "owner_id": 109117, "owner_name": "Busa Péter", "owner_url": "http://www.panoramio.com/user/109117"}
,
{"photo_id": 405822, "category": "D", "venue_title": "tulip", "photo_url": "http://www.panoramio.com/photo/405822", "photo_file_url": "http://mw2.google.com/mw-panoramio/photos/medium/405822.jpg", "longitude": 139.011619, "latitude": 37.871500, "width": 500, "height": 386, "upload_date": "13 January 2007", "owner_id": 86411, "owner_name": "中村脩-Osamu nakamura", "owner_url": "http://www.panoramio.com/user/86411"}
,
{"photo_id": 1516726, "category": "C", "venue_title": "Облако над вулканом Камень. www.photo-sturm.ru", "photo_url": "http://www.panoramio.com/photo/1516726", "photo_file_url": "http://mw2.google.com/mw-panoramio/photos/medium/1516726.jpg", "longitude": 160.587502, "latitude": 56.081999, "width": 414, "height": 500, "upload_date": "27 March 2007", "owner_id": 268724, "owner_name": "Korotnev AV", "owner_url": "http://www.panoramio.com/user/268724"}
,
{"photo_id": 882660, "category": "C", "venue_title": "icy_chains_1_hdr_web", "photo_url": "http://www.panoramio.com/photo/882660", "photo_file_url": "http://mw2.google.com/mw-panoramio/photos/medium/882660.jpg", "longitude": -79.798197, "latitude": 43.321353, "width": 500, "height": 333, "upload_date": "18 February 2007", "owner_id": 17488, "owner_name": "John Gillett", "owner_url": "http://www.panoramio.com/user/17488"}
,
{"photo_id": 9363990, "category": "D", "venue_title": "Marble Cave", "photo_url": "http://www.panoramio.com/photo/9363990", "photo_file_url": "http://mw2.google.com/mw-panoramio/photos/medium/9363990.jpg", "longitude": -72.607527, "latitude": -46.647138, "width": 500, "height": 375, "upload_date": "14 April 2008", "owner_id": 947917, "owner_name": "Dejah", "owner_url": "http://www.panoramio.com/user/947917"}
,
{"photo_id": 1884507, "category": "D", "venue_title": "fukushimagata", "photo_url": "http://www.panoramio.com/photo/1884507", "photo_file_url": "http://mw2.google.com/mw-panoramio/photos/medium/1884507.jpg", "longitude": 139.243813, "latitude": 37.909669, "width": 500, "height": 384, "upload_date": "22 April 2007", "owner_id": 86411, "owner_name": "中村脩-Osamu nakamura", "owner_url": "http://www.panoramio.com/user/86411"}
]}

