var data = { "count": 10785236,
 "photos": [{"photo_id": 27932, "category": "A", "photo_title": "Venue1", "photo_url": "http://www.panoramio.com/photo/27932", "photo_file_url": "http://mw2.google.com/mw-panoramio/photos/medium/27932.jpg", "longitude": 77.1025, "latitude": 28.7041, "width": 500, "height": 375, "upload_date": "25 June 2006", "owner_id": 4483, "owner_name": "Miguel Coranti", "owner_url": "http://www.panoramio.com/user/4483"}
,
{"photo_id": 522084, "category": "B", "photo_title": "Venue2", "photo_url": "http://www.panoramio.com/photo/522084", "photo_file_url": "http://mw2.google.com/mw-panoramio/photos/medium/522084.jpg", "longitude": 17.470493, "latitude": 47.867077, "width": 500, "height": 350, "upload_date": "21 January 2007", "owner_id": 109117, "owner_name": "Busa Péter", "owner_url": "http://www.panoramio.com/user/109117"}
,
{"photo_id": 1578881, "category": "A", "photo_title": "Venue3", "photo_url": "http://www.panoramio.com/photo/1578881", "photo_file_url": "http://mw2.google.com/mw-panoramio/photos/medium/1578881.jpg", "longitude": 145.141754, "latitude": -37.766372, "width": 500, "height": 474, "upload_date": "01 April 2007", "owner_id": 140796, "owner_name": "rosina lamberti", "owner_url": "http://www.panoramio.com/user/140796"}
,
{"photo_id": 97671, "category": "B", "photo_title": "Venue4", "photo_url": "http://www.panoramio.com/photo/97671", "photo_file_url": "http://mw2.google.com/mw-panoramio/photos/medium/97671.jpg", "longitude": 72.8777, "latitude": 19.0760, "width": 500, "height": 375, "upload_date": "09 December 2006", "owner_id": 13058, "owner_name": "Kyryl", "owner_url": "http://www.panoramio.com/user/13058"}
,
{"photo_id": 25514, "category": "B", "photo_title": "Venue5", "photo_url": "http://www.panoramio.com/photo/25514", "photo_file_url": "http://mw2.google.com/mw-panoramio/photos/medium/25514.jpg", "longitude": -84.693432, "latitude": 10.479372, "width": 500, "height": 375, "upload_date": "17 June 2006", "owner_id": 4112, "owner_name": "Roberto Garcia", "owner_url": "http://www.panoramio.com/user/4112"}
,
{"photo_id": 57823, "category": "A", "photo_title": "Venue6", "photo_url": "http://www.panoramio.com/photo/57823", "photo_file_url": "http://mw2.google.com/mw-panoramio/photos/medium/57823.jpg", "longitude": 12.900009, "latitude": 47.409968, "width": 500, "height": 333, "upload_date": "05 October 2006", "owner_id": 8060, "owner_name": "Norbert MAIER", "owner_url": "http://www.panoramio.com/user/8060"}
,
{"photo_id": 532693, "category": "D", "photo_title": "Venue7", "photo_url": "http://www.panoramio.com/photo/532693", "photo_file_url": "http://mw2.google.com/mw-panoramio/photos/medium/532693.jpg", "longitude": 11.272659, "latitude": 59.637472, "width": 500, "height": 333, "upload_date": "22 January 2007", "owner_id": 39160, "owner_name": "Snemann", "owner_url": "http://www.panoramio.com/user/39160"}
,
{"photo_id": 57819, "category": "C", "photo_title": "Venue8", "photo_url": "http://www.panoramio.com/photo/57819", "photo_file_url": "http://mw2.google.com/mw-panoramio/photos/medium/57819.jpg", "longitude": 13.189259, "latitude": 47.483221, "width": 500, "height": 333, "upload_date": "05 October 2006", "owner_id": 8060, "owner_name": "Norbert MAIER", "owner_url": "http://www.panoramio.com/user/8060"}
,
{"photo_id": 1282387, "category": "D", "photo_title": "Venue9", "photo_url": "http://www.panoramio.com/photo/1282387", "photo_file_url": "http://mw2.google.com/mw-panoramio/photos/medium/1282387.jpg", "longitude": -61.013432, "latitude": 14.493688, "width": 500, "height": 400, "upload_date": "12 March 2007", "owner_id": 49870, "owner_name": "Jean-Michel Raggioli", "owner_url": "http://www.panoramio.com/user/49870"}
,
{"photo_id": 945976, "category": "C", "photo_title": "Venue10", "photo_url": "http://www.panoramio.com/photo/945976", "photo_file_url": "http://mw2.google.com/mw-panoramio/photos/medium/945976.jpg", "longitude": 0.490866, "latitude": 40.903783, "width": 335, "height": 500, "upload_date": "21 February 2007", "owner_id": 3022, "owner_name": "Arcadi", "owner_url": "http://www.panoramio.com/user/3022"}
,
{"photo_id": 73514, "category": "A", "photo_title": "Hintersee bei Ramsau", "photo_url": "http://www.panoramio.com/photo/73514", "photo_file_url": "http://mw2.google.com/mw-panoramio/photos/medium/73514.jpg", "longitude": 12.852459, "latitude": 47.609519, "width": 500, "height": 333, "upload_date": "30 October 2006", "owner_id": 8060, "owner_name": "Norbert MAIER", "owner_url": "http://www.panoramio.com/user/8060"}
,
{"photo_id": 298967, "category": "D", "photo_title": "Antelope Canyon, Ray of Light", "photo_url": "http://www.panoramio.com/photo/298967", "photo_file_url": "http://mw2.google.com/mw-panoramio/photos/medium/298967.jpg", "longitude": -111.407890, "latitude": 36.894037, "width": 500, "height": 375, "upload_date": "04 January 2007", "owner_id": 64388, "owner_name": "Artusi", "owner_url": "http://www.panoramio.com/user/64388"}
,
{"photo_id": 88151, "category": "A", "photo_title": "Val Verzasca - Switzerland", "photo_url": "http://www.panoramio.com/photo/88151", "photo_file_url": "http://mw2.google.com/mw-panoramio/photos/medium/88151.jpg", "longitude": 8.838158, "latitude": 46.257746, "width": 500, "height": 375, "upload_date": "28 November 2006", "owner_id": 11098, "owner_name": "Michele Masnata", "owner_url": "http://www.panoramio.com/user/11098"}
,
{"photo_id": 6463, "category": "D", "photo_title": "Guggenheim and spider", "photo_url": "http://www.panoramio.com/photo/6463", "photo_file_url": "http://mw2.google.com/mw-panoramio/photos/medium/6463.jpg", "longitude": -2.933736, "latitude": 43.269159, "width": 500, "height": 375, "upload_date": "09 January 2006", "owner_id": 414, "owner_name": "Sonia Villegas", "owner_url": "http://www.panoramio.com/user/414"}
,
{"photo_id": 107980, "category": "A", "photo_title": "Mostar", "photo_url": "http://www.panoramio.com/photo/107980", "photo_file_url": "http://mw2.google.com/mw-panoramio/photos/medium/107980.jpg", "longitude": 17.815200, "latitude": 43.337255, "width": 369, "height": 500, "upload_date": "10 December 2006", "owner_id": 12954, "owner_name": "Ziębol", "owner_url": "http://www.panoramio.com/user/12954"}
,
{"photo_id": 9439, "category": "C", "photo_title": "Bora Bora", "photo_url": "http://www.panoramio.com/photo/9439", "photo_file_url": "http://mw2.google.com/mw-panoramio/photos/medium/9439.jpg", "longitude": -151.750000, "latitude": -16.500000, "width": 500, "height": 375, "upload_date": "02 February 2006", "owner_id": 1600, "owner_name": "heavenearth", "owner_url": "http://www.panoramio.com/user/1600"}
,
{"photo_id": 673131, "category": "D", "photo_title": "Nivane in Ørsta", "photo_url": "http://www.panoramio.com/photo/673131", "photo_file_url": "http://mw2.google.com/mw-panoramio/photos/medium/673131.jpg", "longitude": 6.108742, "latitude": 62.226676, "width": 500, "height": 334, "upload_date": "03 February 2007", "owner_id": 56091, "owner_name": "Kjetil Vaage Øie", "owner_url": "http://www.panoramio.com/user/56091"}
,
{"photo_id": 346269, "category": "D", "photo_title": "italy-toscany", "photo_url": "http://www.panoramio.com/photo/346269", "photo_file_url": "http://mw2.google.com/mw-panoramio/photos/medium/346269.jpg", "longitude": 11.616282, "latitude": 43.064389, "width": 500, "height": 334, "upload_date": "08 January 2007", "owner_id": 69671, "owner_name": "illusandpics.com", "owner_url": "http://www.panoramio.com/user/69671"}
,
{"photo_id": 290039, "category": "B", "photo_title": "Gentoo Penguins at Sunrise", "photo_url": "http://www.panoramio.com/photo/290039", "photo_file_url": "http://mw2.google.com/mw-panoramio/photos/medium/290039.jpg", "longitude": -59.070311, "latitude": -52.430295, "width": 500, "height": 284, "upload_date": "03 January 2007", "owner_id": 61890, "owner_name": "enriquevidalphoto.com", "owner_url": "http://www.panoramio.com/user/61890"}
,
{"photo_id": 1870141, "category": "C", "photo_title": "Les Mines", "photo_url": "http://www.panoramio.com/photo/1870141", "photo_file_url": "http://mw2.google.com/mw-panoramio/photos/medium/1870141.jpg", "longitude": 1.314712, "latitude": 45.922199, "width": 500, "height": 379, "upload_date": "21 April 2007", "owner_id": 372189, "owner_name": "Phil©", "owner_url": "http://www.panoramio.com/user/372189"}
,
{"photo_id": 516809, "category": "D", "photo_title": "Az őrszem", "photo_url": "http://www.panoramio.com/photo/516809", "photo_file_url": "http://mw2.google.com/mw-panoramio/photos/medium/516809.jpg", "longitude": 18.239279, "latitude": 47.535341, "width": 500, "height": 286, "upload_date": "21 January 2007", "owner_id": 109117, "owner_name": "Busa Péter", "owner_url": "http://www.panoramio.com/user/109117"}
,
{"photo_id": 67347, "category": "A", "photo_title": "Amanecer en el Salar de Uyuni", "photo_url": "http://www.panoramio.com/photo/67347", "photo_file_url": "http://mw2.google.com/mw-panoramio/photos/medium/67347.jpg", "longitude": -67.549438, "latitude": -20.552438, "width": 500, "height": 375, "upload_date": "20 October 2006", "owner_id": 9080, "owner_name": "Marco Teodonio", "owner_url": "http://www.panoramio.com/user/9080"}
,
{"photo_id": 405822, "category": "D", "photo_title": "tulip", "photo_url": "http://www.panoramio.com/photo/405822", "photo_file_url": "http://mw2.google.com/mw-panoramio/photos/medium/405822.jpg", "longitude": 139.011619, "latitude": 37.871500, "width": 500, "height": 386, "upload_date": "13 January 2007", "owner_id": 86411, "owner_name": "中村脩-Osamu nakamura", "owner_url": "http://www.panoramio.com/user/86411"}
,
{"photo_id": 233619, "category": "B", "photo_title": "Warsaw Bridge 01 [www.wierzchon.com]", "photo_url": "http://www.panoramio.com/photo/233619", "photo_file_url": "http://mw2.google.com/mw-panoramio/photos/medium/233619.jpg", "longitude": 21.035728, "latitude": 52.242353, "width": 500, "height": 500, "upload_date": "25 December 2006", "owner_id": 47836, "owner_name": "Andrzej Wierzchon", "owner_url": "http://www.panoramio.com/user/47836"}
,
{"photo_id": 1516726, "category": "C", "photo_title": "Облако над вулканом Камень. www.photo-sturm.ru", "photo_url": "http://www.panoramio.com/photo/1516726", "photo_file_url": "http://mw2.google.com/mw-panoramio/photos/medium/1516726.jpg", "longitude": 160.587502, "latitude": 56.081999, "width": 414, "height": 500, "upload_date": "27 March 2007", "owner_id": 268724, "owner_name": "Korotnev AV", "owner_url": "http://www.panoramio.com/user/268724"}
,
{"photo_id": 70975, "category": "B", "photo_title": "Hospiz", "photo_url": "http://www.panoramio.com/photo/70975", "photo_file_url": "http://mw2.google.com/mw-panoramio/photos/medium/70975.jpg", "longitude": 8.024461, "latitude": 46.245801, "width": 500, "height": 500, "upload_date": "26 October 2006", "owner_id": 9379, "owner_name": "Davide Bernacchi", "owner_url": "http://www.panoramio.com/user/9379"}
,
{"photo_id": 882660, "category": "C", "photo_title": "icy_chains_1_hdr_web", "photo_url": "http://www.panoramio.com/photo/882660", "photo_file_url": "http://mw2.google.com/mw-panoramio/photos/medium/882660.jpg", "longitude": -79.798197, "latitude": 43.321353, "width": 500, "height": 333, "upload_date": "18 February 2007", "owner_id": 17488, "owner_name": "John Gillett", "owner_url": "http://www.panoramio.com/user/17488"}
,
{"photo_id": 9363990, "category": "D", "photo_title": "Marble Cave", "photo_url": "http://www.panoramio.com/photo/9363990", "photo_file_url": "http://mw2.google.com/mw-panoramio/photos/medium/9363990.jpg", "longitude": -72.607527, "latitude": -46.647138, "width": 500, "height": 375, "upload_date": "14 April 2008", "owner_id": 947917, "owner_name": "Dejah", "owner_url": "http://www.panoramio.com/user/947917"}
,
{"photo_id": 1884507, "category": "D", "photo_title": "fukushimagata", "photo_url": "http://www.panoramio.com/photo/1884507", "photo_file_url": "http://mw2.google.com/mw-panoramio/photos/medium/1884507.jpg", "longitude": 139.243813, "latitude": 37.909669, "width": 500, "height": 384, "upload_date": "22 April 2007", "owner_id": 86411, "owner_name": "中村脩-Osamu nakamura", "owner_url": "http://www.panoramio.com/user/86411"}
]}

