var data = { "count": 10785236,
 "photos": [{"category": "A", "venue_title": "National Gallery of Modern Art", "phone": "080 2234 2338", "website" : "http://ngmaindia.gov.in/", "email": "ngma.delhi@gmail.com", "longitude": 77.6369323, "latitude": 12.9701272, "genre": "Gallery", "address": "49, GF, Manikyavelu Mansion, Palace Rd, Vasanth Nagar, Bengaluru, Karnataka 560052", "fb": "https://www.facebook.com/ngmadelhi/", "twitter": "https://twitter.com/ngma_delhi", "youtube": "https://www.youtube.com/channel/UCGpjRKx4wqGSUin3Y-Lrb5w "}
,
{"category": "B", "venue_title": "Ranga Shankara", "phone": "91-80-26592777, +91-80-26493982", "website" : "http://www.rangashankara.org", "email": "programming@rangashankara.in", "longitude": 77.5849247, "latitude": 12.9115954, "genre": "Performing arts theater", "address": "36/2, 8th Cross Road, 2nd Phase, JP Nagar, Bengaluru", "fb": "https://www.facebook.com/rangashankara/ ", "twitter": "#", "youtube": "#"}
,
{"category": "A", "venue_title": "Venkatappa Art Gallery", "phone": "080 2286 4483", "website" : "https://vagforum.in/", "email": "#", "longitude": 77.5914323, "latitude": 12.9718516, "genre": "Gallery", "address": "Kasturba Rd, Ambedkar Veedhi, Sampangi Rama Nagar, Bengaluru, Karnataka 560001", "fb": "https://www.facebook.com/pages/Venkatappa-Art-Gallery/162272507221939", "twitter": "https://twitter.com/blrheritage", "youtube": "#"}
,
{"category": "B", "venue_title": "The Humming Tree", "phone": "080 2224 1325", "website" : "#", "email": "#", "longitude": 77.6368543, "latitude": 12.9702653, "genre": "Performing Venue", "address": "No.949, 12th Main Rd, Sodepur, Doopanahalli, Indiranagar, Bengaluru, Karnataka 560008", "fb": "https://www.facebook.com/thehummingtree/", "twitter": "https://twitter.com/the_hummingtree", "youtube": "https://www.youtube.com/channel/UCRZ-B8xfp8yUCSzfZbXzUyQ"}
,
{"category": "B", "venue_title": "Alliance Francaise De Bangalore", "phone": "080 4080 8181", "website" : "https://bangalore.afindia.org/", "email": "afbangalore@afindia.org / afbangalore2@afindia.org", "longitude": 77.594877, "latitude": 12.9909594, "genre": "French language school/Events", "address": "Thimmaiah Road, Opposite U.N. I Building, Vasant Nagar, Bengaluru, Karnataka 560052", "fb": "https://www.facebook.com/AllianceFrancaiseBangalore/", "twitter": "https://twitter.com/afbglr", "youtube": "#"}
,
{"category": "B", "venue_title": "Harkat Studios, Mumbai", "phone": "077180 30009", "website" : "https://harkat.in/", "email": "afbangalore@afindia.org / afbangalore2@afindia.org", "longitude": 72.8110123, "latitude": 19.1343271, "genre": "Performance Spaces", "address": "Bungalow No. 75, JP Road, Aram Nagar Part 2, Versova, Andheri West, Mumbai, Maharashtra 400061", "fb": "https://www.facebook.com/AllianceFrancaiseBangalore/", "twitter": "https://twitter.com/afbglr", "youtube": "#"}
,
{"category": "B", "venue_title": "Barefoot! Space, New Delhi", "phone": "077180 30009", "website" : "https://harkat.in/", "email": "afbangalore@afindia.org / afbangalore2@afindia.org", "longitude": 77.2145917, "latitude": 28.5491063, "genre": "Performance Spaces", "address": "86/1 Shahpur Jat, Asian Games Village Rd, Shahpur Jat, Siri Fort, New Delhi, Delhi 110049", "fb": "https://www.facebook.com/AllianceFrancaiseBangalore/", "twitter": "https://twitter.com/afbglr", "youtube": "#"}
,
{"category": "A", "venue_title": "HAL Heritage Centre and Aerospace Museum", "phone": "080 2231 8341", "website" : "http://hal-india.co.in/Index.aspx", "email": "#", "longitude": 77.6809878, "latitude": 12.9551961, "genre": "Museum", "address": "Near HAL Police Station, HAL Old Airport Rd, Marathahalli, Bengaluru, Karnataka 560037", "fb": "https://www.facebook.com/pages/Venkatappa-Art-Gallery/162272507221939", "twitter": "https://twitter.com/blrheritage", "youtube": "#"}
,
{"category": "A", "venue_title": "National Museum, New Delhi", "phone": "011 2379 2775", "website" : "nationalmuseumindia.gov.in", "email": "#", "longitude": 77.2192933, "latitude": 28.6118213, "genre": "Museum", "address": "Near HAL Police Station, HAL Old Airport Rd, Marathahalli, Bengaluru, Karnataka 560037", "fb": "https://www.facebook.com/pages/Venkatappa-Art-Gallery/162272507221939", "twitter": "https://twitter.com/blrheritage", "youtube": "#"}
,
{"category": "A", "venue_title": "National Rail Museum, New Delhi", "phone": "011 2688 1826", "website" : "nrmindia.com", "email": "#", "longitude": 77.179753, "latitude": 28.5857968, "genre": "Museum", "address": "Chanakyapuri, New Delhi, Delhi 110021", "fb": "https://www.facebook.com/pages/Venkatappa-Art-Gallery/162272507221939", "twitter": "https://twitter.com/blrheritage", "youtube": "#"}
]}

